[{
  "id": 0,
  "name": "Västerort Trafikskola",
  "address": "Grimstagatan 160 162 58 Vällingby",
  "email": "info@vasterorttrafikskola.se",
  "phone": "08-533 301 01",
  "latitude": "59.36171969999999",
  "longitude": "17.865397499999972",
  "support": "81",
  "registrationTeacher": "100",
  "pedagogical": "90",
  "cleanVehicles": "80",
  "recommendation": "95",
  "moto": false,
  "city": "Hässelby-Vällingby"
},
{
  "id": 1,
  "name": "Kullens Trafikskola",
  "address": "Sollentunavägen 162 B 191 48 Sollentuna",
  "email": "info@kullenstrafikskola.nu",
  "phone": "08-590 722 00",
  "latitude": "59.4293639",
  "longitude": "17.951829999999973",
  "support": "81",
  "registrationTeacher": "100",
  "pedagogical": "90",
  "cleanVehicles": "80",
  "recommendation": "95",
  "moto": false,
  "city": "Sollentuna"
},
{
  "id": 2,
  "name": "JPs Trafikskola",
  "address": "Sturegatan 8 172 31 Sundbyberg",
  "email": "info@jpstrafikskola.nu",
  "phone": "08-29 99 90",
  "latitude": "59.3368863",
  "longitude": "18.073758099999964",
  "support": "81",
  "registrationTeacher": "100",
  "pedagogical": "90",
  "cleanVehicles": "80",
  "recommendation": "95",
  "moto": true,
  "city": "Sundbyberg/Solna"
},
{
  "id": 3,
  "name": "Gabriels Trafikskola",
  "address": "Riddarplatsen 2, 177 30 Järfälla",
  "email": "info@gabrieltrafikskola.se",
  "phone": "08-580 310 10",
  "latitude": "59.4237939",
  "longitude": "17.83422889999997",
  "support": "81",
  "registrationTeacher": "100",
  "pedagogical": "90",
  "cleanVehicles": "80",
  "recommendation": "95",
  "moto": false,
  "city": "Jakobsberg"
},
{
  "id": 4,
  "name": "Västermalm Trafikskola",
  "address": "Arbetargatan 22, 112 45 Stockholm",
  "email": "info@vastermalmstrafikskola.se",
  "phone": "08-652 56 06",
  "latitude": "59.3341782",
  "longitude": "18.028197099999943",
  "support": "81",
  "registrationTeacher": "100",
  "pedagogical": "90",
  "cleanVehicles": "80",
  "recommendation": "95",
  "moto": true,
  "city": "Västermalm"
},
{
  "id": 5,
  "name": "Brommaplans Trafikskola",
  "address": "Brommaplan 407, 168 78 Bromma",
  "email": "info@brtrafikskola.se",
  "phone": "08-25 20 60",
  "latitude": "59.33894229999999",
  "longitude": "17.939309999999978",
  "support": "81",
  "registrationTeacher": "100",
  "pedagogical": "90",
  "cleanVehicles": "80",
  "recommendation": "95",
  "moto": false,
  "city": "Bromma"
},
{
  "id": 6,
  "name": "Tyresö Trafikskola",
  "address": "Vintervägen 12, 135 40 Tyresö",
  "email": "Inf@tyresotrafikskola.se",
  "phone": "08-742 66 00",
  "latitude": "59.2449127",
  "longitude": "18.215117100000043",
  "support": "81",
  "registrationTeacher": "100",
  "pedagogical": "90",
  "cleanVehicles": "80",
  "recommendation": "95",
  "moto": false,
  "city": "Tyresö"
},
{
  "id": 7,
  "name": "Farsta Trafikskola",
  "address": "Larsbodav. 53 123 41 FARSTA",
  "email": "info@farstatrafikskola.com",
  "phone": "08-94 99 00",
  "latitude": "59.24453569999999",
  "longitude": "18.093792500000063",
  "support": "81",
  "registrationTeacher": "100",
  "pedagogical": "90",
  "cleanVehicles": "80",
  "recommendation": "95",
  "moto": true,
  "city": "Farsta"
},
{
  "id": 8,
  "name": "Jarla Trafikskola",
  "address": "Valhallavägen 82, 114 27 Stockholm",
  "email": "ostermalm@jarlatrafikskola.se",
  "phone": "08-20 83 93",
  "latitude": "59.3448686",
  "longitude": "18.072456200000033",
  "support": "81",
  "registrationTeacher": "100",
  "pedagogical": "90",
  "cleanVehicles": "80",
  "recommendation": "95",
  "moto": true,
  "city": "Östermalm"
},
{
  "id": 9,
  "name": "Lidingö Trafikskola",
  "address": "Stockholmsvägen 70, 1 81 42 Lidingö",
  "email": "info@lidingotrafikskola.se",
  "phone": "08-767 24 00",
  "latitude": "59.36768250000001",
  "longitude": "18.1502031",
  "support": "81",
  "registrationTeacher": "100",
  "pedagogical": "90",
  "cleanVehicles": "80",
  "recommendation": "95",
  "moto": true,
  "city": "Lidingö"
},
{
  "id": 10,
  "name": "Saltsjö Trafikskola",
  "address": "Västra Finnbodavägen 2, 131 30 Nacka",
  "email": "info@saltsjotrafikskola.se",
  "phone": "08-642 64 40",
  "latitude": "59.31324919999999",
  "longitude": "18.1107432",
  "support": "81",
  "registrationTeacher": "100",
  "pedagogical": "90",
  "cleanVehicles": "80",
  "recommendation": "95",
  "moto": false,
  "city": "Nacka"
},
{
  "id": 11,
  "name": "Södermalms Trafikskola",
  "address": "Östgötagatan 48A, 116 64 Stockholm",
  "email": "info@sodermalmstrafikskola.com",
  "phone": "08-641 02 04",
  "latitude": "59.3106678",
  "longitude": "18.078281800000013",
  "support": "81",
  "registrationTeacher": "100",
  "pedagogical": "90",
  "cleanVehicles": "80",
  "recommendation": "95",
  "moto": false,
  "city": "Södermalm"
},
{
  "id": 12,
  "name": "Haninge Trafikskola",
  "address": "Marinens väg 30 136 40 Handen",
  "email": "info@haningetrafikskola.se",
  "phone": "",
  "latitude": "59.1634354",
  "longitude": "18.133999700000004",
  "support": "81",
  "registrationTeacher": "100",
  "pedagogical": "90",
  "cleanVehicles": "80",
  "recommendation": "95",
  "moto": false,
  "city": "Haninge"
},
{
  "id": 13,
  "name": "Huddinge Trafikskola",
  "address": "Kommunalvägen 20 141 61 Huddinge",
  "email": "kontoret@huddingetrafikskola.se",
  "phone": "08-711 50 00",
  "latitude": "59.237238",
  "longitude": "17.981693899999982",
  "support": "81",
  "registrationTeacher": "100",
  "pedagogical": "90",
  "cleanVehicles": "80",
  "recommendation": "95",
  "moto": false,
  "city": "Huddinge"
},
{
  "id": 14,
  "name": "Danderyd Trafikskola",
  "address": "Golfvägen 12 182 31 Danderyd",
  "email": "info@danderydstrafikskola.se",
  "phone": "08-755 33 63",
  "latitude": "59.3975512",
  "longitude": "18.035634500000015",
  "support": "81",
  "registrationTeacher": "100",
  "pedagogical": "90",
  "cleanVehicles": "80",
  "recommendation": "95",
  "moto": false,
  "city": "Danderyd-Täby"
},
{
  "id": 15,
  "name": "Upplands Väsby Trafikskola",
  "address": "Dragonvägen 84 194 33 Upplands Väsby",
  "email": "info@vasbytrafikskola.se",
  "phone": "08-590 919 33",
  "latitude": "59.5177196",
  "longitude": "17.911288199999944",
  "support": "81",
  "registrationTeacher": "100",
  "pedagogical": "90",
  "cleanVehicles": "80",
  "recommendation": "95",
  "moto": false,
  "city": "Upplands Väsby"
},
{
  "id": 16,
  "name": "Din Körskola",
  "address": "Tomtbergavägen 2 145 67 Norsborg",
  "email": "info@dinkorskola.se",
  "phone": "08-410 699 50",
  "latitude": "59.244233",
  "longitude": "17.830133599999954",
  "support": "81",
  "registrationTeacher": "100",
  "pedagogical": "90",
  "cleanVehicles": "80",
  "recommendation": "95",
  "moto": true,
  "city": "Norsborg"
},
{
  "id": 17,
  "name": "Södertälje Trafikskola",
  "address": "Järnagatan 8 151 72 Södertälje",
  "email": "info@sodertaljetrafikskola.se",
  "phone": "08-550 300 89",
  "latitude": "59.1939687",
  "longitude": "17.62733359999993",
  "support": "81",
  "registrationTeacher": "100",
  "pedagogical": "90",
  "cleanVehicles": "80",
  "recommendation": "95",
  "moto": true,
  "city": "Södertälje"
},
{
  "id": 18,
  "name": "Yvonnes Trafikskola",
  "address": "Skolgatan 52 149 30 Nynäshamn",
  "email": "info@yvonnestrafikskola.se",
  "phone": "08-520 150 90",
  "latitude": "58.91063669999999",
  "longitude": "17.95075829999996",
  "support": "81",
  "registrationTeacher": "100",
  "pedagogical": "90",
  "cleanVehicles": "80",
  "recommendation": "95",
  "moto": true,
  "city": "Nynäshamn"
},
{
  "id": 19,
  "name": "Norrtälje Trafikskola",
  "address": "Hantverkaregatan 21 761 30 Norrtälje",
  "email": "norrtaljetrafikskola@norrtalje.com",
  "phone": "0176-188 68",
  "latitude": "59.75835809999999",
  "longitude": "18.69915519999995",
  "support": "81",
  "registrationTeacher": "100",
  "pedagogical": "90",
  "cleanVehicles": "80",
  "recommendation": "95",
  "moto": false,
  "city": "Norrtälje"
}]