[{
  "id": 0,
  "name": "Västerort Trafikskola",
  "address": "Grimstagatan 160 162 58 Vällingby",
  "email": "info@vasterorttrafikskola.se",
  "phone": "08-533 301 01",
  "latitude": "59.339783",
  "longitude": "17.939713",
  "support": "81",
  "registrationTeacher": "100",
  "pedagogical": "90",
  "cleanVehicles": "80",
  "recommendation": "95",
  "moto": false
},
{
  "id": 1,
  "name": "Kullens Trafikskola",
  "address": "Sollentunavägen 162 B 191 48 Sollentuna",
  "email": "info@kullenstrafikskola.nu",
  "phone": "08-590 722 00",
  "latitude": "59.246838",
  "longitude": "17.864992",
  "support": "81",
  "registrationTeacher": "100",
  "pedagogical": "90",
  "cleanVehicles": "80",
  "recommendation": "95",
  "moto": false
},
{
  "id": 2,
  "name": "JPs Trafikskola",
  "address": "Sturegatan 8 172 31 Sundbyberg",
  "email": "info@jpstrafikskola.nu",
  "phone": "08-29 99 90",
  "latitude": "59.397905",
  "longitude": "18.036204",
  "support": "81",
  "registrationTeacher": "100",
  "pedagogical": "90",
  "cleanVehicles": "80",
  "recommendation": "95",
  "moto": true
},
{
  "id": 3,
  "name": "Gabriels Trafikskola",
  "address": "Riddarplatsen 2, 177 30 Järfälla",
  "email": "info@gabrieltrafikskola.se",
  "phone": "08-580 310 10",
  "latitude": "59.242993",
  "longitude": "18.089053",
  "support": "81",
  "registrationTeacher": "100",
  "pedagogical": "90",
  "cleanVehicles": "80",
  "recommendation": "95",
  "moto": false
},
{
  "id": 4,
  "name": "Västermalm Trafikskola",
  "address": "Arbetargatan 22, 112 45 Stockholm",
  "email": "info@vastermalmstrafikskola.se",
  "phone": "08-652 56 06",
  "latitude": "59.169479",
  "longitude": "18.140326",
  "support": "81",
  "registrationTeacher": "100",
  "pedagogical": "90",
  "cleanVehicles": "80",
  "recommendation": "95",
  "moto": true
},
{
  "id": 5,
  "name": "Brommaplans Trafikskola",
  "address": "Brommaplan 407, 168 78 Bromma",
  "email": "info@brtrafikskola.se",
  "phone": "08-25 20 60",
  "latitude": "59.235828",
  "longitude": "17.981694",
  "support": "81",
  "registrationTeacher": "100",
  "pedagogical": "90",
  "cleanVehicles": "80",
  "recommendation": "95",
  "moto": false
},
{
  "id": 6,
  "name": "Tyresö Trafikskola",
  "address": "Vintervägen 12, 135 40 Tyresö",
  "email": "Inf@tyresotrafikskola.se",
  "phone": "08-742 66 00",
  "latitude": "59.363290",
  "longitude": "17.872058",
  "support": "81",
  "registrationTeacher": "100",
  "pedagogical": "90",
  "cleanVehicles": "80",
  "recommendation": "95",
  "moto": false
},
{
  "id": 7,
  "name": "Farsta Trafikskola",
  "address": "Larsbodav. 53 123 41 FARSTA",
  "email": "info@farstatrafikskola.com",
  "phone": "08-94 99 00",
  "latitude": "59.424149",
  "longitude": "17.833317",
  "support": "81",
  "registrationTeacher": "100",
  "pedagogical": "90",
  "cleanVehicles": "80",
  "recommendation": "95",
  "moto": true
},
{
  "id": 8,
  "name": "Jarla Trafikskola",
  "address": "Valhallavägen 82, 114 27 Stockholm",
  "email": "ostermalm@jarlatrafikskola.se",
  "phone": "08-20 83 93",
  "latitude": "59.365749",
  "longitude": "18.134673",
  "support": "81",
  "registrationTeacher": "100",
  "pedagogical": "90",
  "cleanVehicles": "80",
  "recommendation": "95",
  "moto": true
},
{
  "id": 9,
  "name": "Lidingö Trafikskola",
  "address": "Stockholmsvägen 70, 1 81 42 Lidingö",
  "email": "info@lidingotrafikskola.se",
  "phone": "08-767 24 00",
  "latitude": "59.310144",
  "longitude": "18.165112",
  "support": "81",
  "registrationTeacher": "100",
  "pedagogical": "90",
  "cleanVehicles": "80",
  "recommendation": "95",
  "moto": true
},
{
  "id": 10,
  "name": "Saltsjö Trafikskola",
  "address": "Västra Finnbodavägen 2, 131 30 Nacka",
  "email": "info@saltsjotrafikskola.se",
  "phone": "08-642 64 40",
  "latitude": "59.751209",
  "longitude": "18.674528",
  "support": "81",
  "registrationTeacher": "100",
  "pedagogical": "90",
  "cleanVehicles": "80",
  "recommendation": "95",
  "moto": false
},
{
  "id": 11,
  "name": "Södermalms Trafikskola",
  "address": "Östgötagatan 48A, 116 64 Stockholm",
  "email": "info@sodermalmstrafikskola.com",
  "phone": "08-641 02 04",
  "latitude": "58.903330",
  "longitude": "17.944744",
  "support": "81",
  "registrationTeacher": "100",
  "pedagogical": "90",
  "cleanVehicles": "80",
  "recommendation": "95",
  "moto": false
},
{
  "id": 12,
  "name": "Haninge Trafikskola",
  "address": "Marinens väg 30 136 40 Handen",
  "email": "info@haningetrafikskola.se",
  "phone": "",
  "latitude": "59.428507",
  "longitude": "17.951221",
  "support": "81",
  "registrationTeacher": "100",
  "pedagogical": "90",
  "cleanVehicles": "80",
  "recommendation": "95",
  "moto": false
},
{
  "id": 13,
  "name": "Huddinge Trafikskola",
  "address": "Kommunalvägen 20 141 61 Huddinge",
  "email": "kontoret@huddingetrafikskola.se",
  "phone": "08-711 50 00",
  "latitude": "59.363111",
  "longitude": "17.970530",
  "support": "81",
  "registrationTeacher": "100",
  "pedagogical": "90",
  "cleanVehicles": "80",
  "recommendation": "95",
  "moto": false
},
{
  "id": 14,
  "name": "Danderyd Trafikskola",
  "address": "Golfvägen 12 182 31 Danderyd",
  "email": "info@danderydstrafikskola.se",
  "phone": "08-755 33 63",
  "latitude": "59.308547",
  "longitude": "18.075803",
  "support": "81",
  "registrationTeacher": "100",
  "pedagogical": "90",
  "cleanVehicles": "80",
  "recommendation": "95",
  "moto": false
},
{
  "id": 15,
  "name": "Upplands Väsby Trafikskola",
  "address": "Dragonvägen 84 194 33 Upplands Väsby",
  "email": "info@vasbytrafikskola.se",
  "phone": "08-590 919 33",
  "latitude": "59.196332",
  "longitude": "17.628281",
  "support": "81",
  "registrationTeacher": "100",
  "pedagogical": "90",
  "cleanVehicles": "80",
  "recommendation": "95",
  "moto": false
},
{
  "id": 16,
  "name": "Din Körskola",
  "address": "Tomtbergavägen 2 145 67 Norsborg",
  "email": "info@dinkorskola.se",
  "phone": "08-410 699 50",
  "latitude": "59.518524",
  "longitude": "17.913883",
  "support": "81",
  "registrationTeacher": "100",
  "pedagogical": "90",
  "cleanVehicles": "80",
  "recommendation": "95",
  "moto": true
},
{
  "id": 17,
  "name": "Södertälje Trafikskola",
  "address": "Järnagatan 8 151 72 Södertälje",
  "email": "info@sodertaljetrafikskola.se",
  "phone": "08-550 300 89",
  "latitude": "59.244840",
  "longitude": "18.228266",
  "support": "81",
  "registrationTeacher": "100",
  "pedagogical": "90",
  "cleanVehicles": "80",
  "recommendation": "95",
  "moto": true
},
{
  "id": 18,
  "name": "Yvonnes Trafikskola",
  "address": "Skolgatan 52 149 30 Nynäshamn",
  "email": "info@yvonnestrafikskola.se",
  "phone": "08-520 150 90",
  "latitude": "59.334719",
  "longitude": "18.032149",
  "support": "81",
  "registrationTeacher": "100",
  "pedagogical": "90",
  "cleanVehicles": "80",
  "recommendation": "95",
  "moto": true
},
{
  "id": 19,
  "name": "Norrtälje Trafikskola",
  "address": "Hantverkaregatan 21 761 30 Norrtälje",
  "email": "norrtaljetrafikskola@norrtalje.com",
  "phone": "0176-188 68",
  "latitude": "59.336684",
  "longitude": "18.085292",
  "support": "81",
  "registrationTeacher": "100",
  "pedagogical": "90",
  "cleanVehicles": "80",
  "recommendation": "95",
  "moto": false
}]